,City,Lat,Lng,Max Temp,Humidity,Cloudiness,Wind Speed,Country,Date
0,Tambura,5.6,27.4667,71.22,41,75,4.03,SS,1639971071
1,Hithadhoo,-0.6,73.0833,82.15,76,90,7.18,MV,1639971071
2,Zaysan,47.4667,84.8667,26.1,88,100,2.48,KZ,1639971072
3,Kahului,20.8947,-156.47,74.46,92,75,16.11,US,1639971072
4,Kutum,14.2,24.6667,54.82,32,0,6.31,SD,1639971072
5,Esperance,-33.8667,121.9,80.44,49,38,11.41,AU,1639971038
6,Busselton,-33.65,115.3333,86.04,37,0,10.67,AU,1639971019
7,Hobart,-42.8794,147.3294,67.86,45,75,24.16,AU,1639971035
8,Buluang,13.3068,123.3425,84.6,73,59,1.14,PH,1639971073
9,Saskylakh,71.9167,114.0833,-7.44,98,100,10.16,RU,1639971074
10,Lumeje,-11.55,20.7833,65.23,96,100,3.96,AO,1639971074
11,Cape Town,-33.9258,18.4232,69.89,72,0,1.01,ZA,1639971074
12,Ushuaia,-54.8,-68.3,38.86,75,75,6.91,AR,1639971074
13,Lorengau,-2.0226,147.2712,83.37,80,100,12.12,PG,1639970924
14,Isangel,-19.55,169.2667,87.91,79,75,6.91,VU,1639971075
15,Atyrau,47.1167,51.8833,30.22,93,40,13.42,KZ,1639971075
16,Gorontalo,0.5412,123.0595,90.64,55,100,5.95,ID,1639971075
17,Vardø,70.3705,31.1107,28.35,67,100,22.62,NO,1639971076
18,Tasiilaq,65.6145,-37.6368,28.56,64,97,7.58,GL,1639971076
19,Rikitea,-23.1203,-134.9692,74.52,85,100,15.19,PF,1639971076
20,Sweetwater,25.7634,-80.3731,75.22,93,1,3.44,US,1639970807
21,Asău,46.4333,26.4,33.96,100,85,1.36,RO,1639971077
22,Tahoua,14.8888,5.2692,59.54,23,0,16.69,NE,1639971077
23,Bam,29.106,58.357,60.78,32,46,3.91,IR,1639971077
24,Lac du Bonnet,50.2536,-96.0612,7.95,88,78,12.82,CA,1639971078
25,Barrow,71.2906,-156.7887,8.62,78,90,34.52,US,1639971078
26,Yinchuan,38.4681,106.2731,37.54,16,0,3.89,CN,1639971079
27,Bredasdorp,-34.5322,20.0403,65.28,82,100,17.76,ZA,1639971079
28,Port Shepstone,-30.7414,30.455,65.8,82,0,9.84,ZA,1639971079
29,Bloemhof,-27.6469,25.607,61.61,76,55,4.85,ZA,1639971080
30,Comodoro Rivadavia,-45.8667,-67.5,53.46,66,0,9.22,AR,1639971080
31,Sucha Beskidzka,49.7419,19.5943,34.02,91,84,10.58,PL,1639971080
32,Belaya Rechka,43.4381,43.535,25.23,93,93,4.47,RU,1639971080
33,Hermanus,-34.4187,19.2345,66.9,78,97,19.62,ZA,1639971081
34,Tura,25.5198,90.2201,68.13,45,0,0.98,IN,1639971081
35,Clyde River,70.4692,-68.5914,10.63,92,100,14.97,CA,1639971081
36,Brae,60.3964,-1.353,39.11,67,100,3.31,GB,1639971081
37,Kapaa,22.0752,-159.319,80.58,83,90,5.01,US,1639971081
38,Arraial do Cabo,-22.9661,-42.0278,71.92,79,62,8.5,BR,1639971082
39,Vaini,-21.2,-175.2,86.16,84,75,10.36,TO,1639971082
40,Qui Nhon,13.7667,109.2333,76.8,74,99,2.01,VN,1639971082
41,Puerto Ayora,-0.7393,-90.3518,69.46,93,100,6.51,EC,1639971082
42,Mehamn,71.0357,27.8492,28.24,66,100,15.21,NO,1639971083
43,Lompoc,34.6391,-120.4579,51.78,85,75,3.0,US,1639971083
44,Mitsamiouli,-11.3847,43.2844,77.29,73,20,5.75,KM,1639971083
45,Punta Arenas,-53.15,-70.9167,46.51,71,75,16.11,CL,1639971144
46,Provideniya,64.3833,-173.3,32.36,93,90,24.61,RU,1639971144
47,Iqaluit,63.7506,-68.5145,-5.31,76,40,8.01,CA,1639971133
48,Toledo,39.8333,-4.0,48.07,85,82,3.2,ES,1639971144
49,Finspång,58.7058,15.7674,33.31,78,88,8.01,SE,1639971145
50,Klaksvík,62.2266,-6.589,41.92,83,100,10.51,FO,1639971145
51,Bengkulu,-3.8004,102.2655,82.89,61,100,6.17,ID,1639971040
52,Upernavik,72.7868,-56.1549,22.57,71,92,7.09,GL,1639971145
53,Skjervøy,70.0311,20.9714,29.12,69,93,5.88,NO,1639971146
54,Kushikino,31.7167,130.2667,54.86,56,85,5.7,JP,1639971146
55,Marsh Harbour,26.5412,-77.0636,76.14,82,0,12.46,BS,1639971146
56,Port Lincoln,-34.7333,135.8667,70.95,51,13,11.79,AU,1639971146
57,Butaritari,3.0707,172.7902,82.15,74,95,15.61,KI,1639970924
58,Kalmunai,7.4167,81.8167,79.81,75,39,11.77,LK,1639971147
59,Guiratinga,-16.3494,-53.7583,73.0,93,100,0.4,BR,1639971147
60,Pandan,14.0453,124.1694,80.64,88,57,11.12,PH,1639971147
61,Vao,-22.6667,167.4833,77.16,87,69,15.82,NC,1639971148
62,Burgeo,47.6167,-57.6152,22.05,72,98,8.81,CA,1639971148
63,Senneterre,48.3835,-77.2328,-3.78,78,96,5.7,CA,1639971148
64,Richards Bay,-28.783,32.0377,69.01,79,89,5.28,ZA,1639971148
65,Port Alfred,-33.5906,26.891,67.69,89,76,8.79,ZA,1639971148
66,Kambove,-10.8764,26.5969,60.35,96,100,1.21,CD,1639971149
67,Tautira,-17.7333,-149.15,84.22,74,42,13.56,PF,1639971149
68,Torbay,47.6666,-52.7314,24.58,81,90,4.61,CA,1639971149
69,Nanortalik,60.1432,-45.2371,39.07,72,100,28.43,GL,1639971149
70,New Norfolk,-42.7826,147.0587,67.5,51,100,5.99,AU,1639971150
71,San Patricio,28.017,-97.5169,51.82,68,100,11.45,US,1639971150
72,Guerrero Negro,27.9769,-114.0611,59.04,55,1,7.02,MX,1639971151
73,Dunkwa,5.9656,-1.78,71.2,83,25,0.83,GH,1639971151
74,Ghanzi,-21.5667,21.7833,67.23,78,99,4.83,BW,1639971151
75,Pangody,65.85,74.4859,-28.73,86,72,9.95,RU,1639971152
76,Chara,56.9064,118.2631,-24.16,85,82,1.19,RU,1639971152
77,Al Bardīyah,31.7561,25.0865,51.58,63,57,19.53,LY,1639971152
78,Luganville,-15.5333,167.1667,83.55,72,99,1.83,VU,1639971152
79,Bluff,-46.6,168.3333,60.8,82,100,33.82,NZ,1639971152
80,Mataura,-46.1927,168.8643,60.48,93,95,13.29,NZ,1639971153
81,Kapuskasing,49.4169,-82.4331,14.09,79,90,14.97,CA,1639971153
82,Belmonte,-15.8631,-38.8828,77.5,90,99,2.1,BR,1639971154
83,Gunjur,13.2019,-16.7339,77.07,38,87,5.75,GM,1639971154
84,Jamestown,42.097,-79.2353,26.71,91,1,3.44,US,1639971154
85,Zonguldak,41.25,31.8333,34.54,91,95,2.77,TR,1639971154
86,Ponta do Sol,32.6667,-17.1,69.01,92,100,17.09,PT,1639971155
87,Tulsīpur,28.131,82.2973,60.46,37,0,2.95,NP,1639971155
88,Cochrane,51.1834,-114.4687,11.44,72,90,5.75,CA,1639971156
89,Antofagasta,-23.65,-70.4,63.68,85,92,3.06,CL,1639971156
90,São Filipe,14.8961,-24.4956,72.63,80,100,10.02,CV,1639971217
91,Bethel,41.3712,-73.414,28.56,71,1,1.01,US,1639971217
92,Ambovombe,-25.1667,46.0833,70.48,69,90,15.55,MG,1639971217
93,Sinazongwe,-17.2614,27.4618,74.48,83,100,8.21,ZM,1639971217
94,Atuona,-9.8,-139.0333,77.74,76,6,12.75,PF,1639971218
95,Bacolod City,10.6667,122.95,86.36,68,95,10.2,PH,1639971218
96,Krasnosel'kup,65.7,82.4667,-36.78,98,16,4.99,RU,1639971218
97,Tuktoyaktuk,69.4541,-133.0374,-13.0,77,90,20.71,CA,1639971218
98,Şinteu,47.15,22.4833,31.12,82,100,9.98,RO,1639971219
99,Faanui,-16.4833,-151.75,80.44,75,23,10.71,PF,1639971219
100,Husavik,66.0449,-17.3389,40.91,88,100,4.14,IS,1639971219
101,Río Gallegos,-51.6226,-69.2181,50.05,50,0,18.41,AR,1639971219
102,Lüderitz,-26.6481,15.1594,58.87,83,2,5.26,NA,1639971220
103,Bijeljina,44.7569,19.2161,37.8,81,13,10.2,BA,1639971220
104,Puerto Escondido,15.85,-97.0667,79.63,69,75,0.0,MX,1639971220
105,Manokwari,-0.8667,134.0833,82.9,73,99,5.1,ID,1639971172
106,Longyearbyen,78.2186,15.6401,24.64,74,75,5.75,SJ,1639971221
107,Assiniboia,49.6334,-105.9845,3.11,78,92,14.97,CA,1639971221
108,Avarua,-21.2078,-159.775,82.45,69,40,8.05,CK,1639971222
109,College,64.8569,-147.8028,21.58,88,90,5.75,US,1639971222
110,Albany,42.6001,-73.9662,23.27,76,14,8.01,US,1639971222
111,Khatanga,71.9667,102.5,-11.61,98,100,11.48,RU,1639971222
112,Praxédis Guerrero,31.3667,-106.0167,47.55,51,1,4.21,MX,1639971223
113,Dunedin,-45.8742,170.5036,71.87,50,63,23.38,NZ,1639971223
114,Nsanje,-16.92,35.262,73.45,90,99,2.44,MW,1639971223
115,Chui,-33.6971,-53.4616,65.03,91,0,8.63,UY,1639971224
116,Riyadh,24.6877,46.7219,60.94,48,100,11.52,SA,1639971022
117,Port Elizabeth,-33.918,25.5701,65.1,94,0,4.61,ZA,1639971224
118,Haines Junction,60.7522,-137.5108,-20.25,76,90,1.14,CA,1639971224
119,Labuhan,-6.8844,112.2051,84.29,72,100,3.49,ID,1639971224
120,Saint-Philippe,-21.3585,55.7679,83.48,81,46,7.54,RE,1639971225
121,George Town,5.4112,100.3354,85.93,71,20,2.3,MY,1639970946
122,Bathsheba,13.2167,-59.5167,79.41,73,20,25.32,BB,1639971225
123,São José da Coroa Grande,-8.8978,-35.1478,78.28,80,87,8.57,BR,1639971225
124,Vila Franca do Campo,37.7167,-25.4333,57.2,92,100,15.05,PT,1639971226
125,Mahébourg,-20.4081,57.7,81.25,78,20,3.44,MU,1639971226
126,Tsurib,42.2368,46.8307,33.12,69,5,16.6,RU,1639971226
127,Inhambane,-23.865,35.3833,73.36,78,99,8.08,MZ,1639971226
128,Alofi,-19.0595,-169.9187,84.09,65,75,18.41,NU,1639971227
129,Seydişehir,37.4193,31.8453,30.74,94,97,2.21,TR,1639971227
130,Vanimo,-2.6741,141.3028,86.49,67,96,10.16,PG,1639971228
131,Nikolskoye,59.7035,30.7861,19.29,91,100,11.41,RU,1639971228
132,Tuscaloosa,33.2098,-87.5692,38.98,91,1,3.44,US,1639971220
133,Touros,-5.1989,-35.4608,81.5,79,96,8.99,BR,1639971228
134,Soe,-9.8607,124.284,84.92,49,91,1.12,ID,1639971229
135,Chokurdakh,70.6333,147.9167,-1.75,92,100,15.7,RU,1639971229
136,Tessalit,20.1986,1.0114,62.71,23,56,10.65,ML,1639971229
137,Phonhong,18.5007,102.4166,73.22,48,51,1.34,LA,1639971289
138,Salisbury,51.0693,-1.7957,43.65,93,90,9.22,GB,1639971184
139,Jiaxing,30.7522,120.75,53.62,33,6,6.53,CN,1639971290
140,Taoudenni,22.6783,-3.9836,71.62,21,99,7.52,ML,1639971290
141,Hilo,19.7297,-155.09,73.11,49,90,3.44,US,1639971291
142,Ancud,-41.8697,-73.8203,58.23,95,15,1.5,CL,1639971291
143,Chumikan,54.7183,135.315,-5.55,85,99,8.84,RU,1639971291
144,Mar del Plata,-38.0023,-57.5575,68.09,95,0,3.0,AR,1639971196
145,Mozarlândia,-14.7447,-50.5706,73.51,92,88,4.23,BR,1639971098
146,Tuatapere,-46.1333,167.6833,60.82,86,99,13.62,NZ,1639971292
147,Krutinka,56.0055,71.5113,12.78,96,100,6.58,RU,1639971292
148,Thinadhoo,0.5333,72.9333,81.16,75,96,5.88,MV,1639971198
149,Muromtsevo,56.3724,75.2418,3.6,98,95,5.77,RU,1639971292
150,Cidreira,-30.1811,-50.2056,69.94,84,0,21.43,BR,1639971293
151,Baghdad,33.3406,44.4009,46.31,66,100,2.3,IQ,1639971293
152,Vaitape,-16.5167,-151.75,80.42,75,23,10.92,PF,1639971293
153,Maceió,-9.6658,-35.7353,78.24,88,20,4.61,BR,1639971293
154,San Fernando del Valle de Catamarca,-28.4696,-65.7852,87.78,46,100,1.99,AR,1639971293
155,Severo-Kuril'sk,50.6789,156.125,27.25,74,88,12.17,RU,1639971294
156,Intipucá,13.1969,-88.0544,77.58,80,72,3.2,SV,1639971294
157,Kumul,42.8,93.45,27.81,43,0,1.01,CN,1639971232
158,East London,-33.0153,27.9116,63.54,94,0,5.75,ZA,1639971294
159,Los Llanos de Aridane,28.6585,-17.9182,65.95,83,0,4.0,ES,1639971196
160,Qaanaaq,77.484,-69.3632,20.64,68,100,9.04,GL,1639971295
161,Qena,26.1615,32.7183,51.48,51,7,6.67,EG,1639971295
162,Eureka,40.8021,-124.1637,55.92,75,100,8.99,US,1639971260
163,Laguna,38.421,-121.4238,45.28,91,1,0.0,US,1639971296
164,Karratha,-20.7377,116.8463,93.31,50,8,18.16,AU,1639971055
165,Mossamedes,-15.1961,12.1522,68.77,71,62,8.75,AO,1639971263
166,Chetwayi,10.5333,76.05,77.07,56,10,15.5,IN,1639971296
167,Cockburn Town,21.4612,-71.1419,79.0,77,12,15.68,TC,1639971232
168,Norman Wells,65.282,-126.8329,1.44,78,90,5.75,CA,1639971297
169,Tsabong,-26.0217,22.401,68.68,70,89,16.2,BW,1639971297
170,Zhigansk,66.7697,123.3711,-42.41,98,99,4.25,RU,1639971297
171,Molina,-35.1167,-71.2833,73.13,65,0,3.44,CL,1639971225
172,Chapais,49.7834,-74.8492,-2.42,100,74,3.04,CA,1639971298
173,Verkhnetulomskiy,68.6073,31.7962,6.93,96,100,2.93,RU,1639971298
174,Gwadar,25.1216,62.3254,71.11,69,100,5.44,PK,1639971298
175,Ilulissat,69.2167,-51.1,39.22,41,100,28.77,GL,1639971299
176,Ribeira Grande,38.5167,-28.7,59.99,61,84,33.33,PT,1639971263
177,Batagay,67.6333,134.6333,-49.59,99,49,2.77,RU,1639971299
178,Punta Alta,-38.8759,-62.0736,71.64,48,1,10.0,AR,1639971247
179,Dingle,10.9995,122.6711,85.5,70,64,10.83,PH,1639971300
180,Manggar,-2.8833,108.2667,81.88,74,100,7.0,ID,1639971300
181,Ruteng,-8.6136,120.4721,72.7,80,100,1.32,ID,1639971301
182,Naze,28.3667,129.4833,61.72,48,31,5.17,JP,1639971230
183,Najrān,17.4924,44.1277,52.45,36,5,0.98,SA,1639971199
184,Katsuura,35.1333,140.3,48.31,42,0,3.49,JP,1639971125
185,Along,28.1667,94.7667,66.22,29,0,0.58,IN,1639971272
186,Santa Cruz de la Sierra,-17.8,-63.1667,74.66,94,90,2.3,BO,1639971363
187,Banda Aceh,5.5577,95.3222,79.5,85,100,20.07,ID,1639971246
188,Selma,36.5708,-119.6121,45.09,59,1,1.28,US,1639971313
189,Maragogi,-9.0122,-35.2225,77.83,81,95,8.52,BR,1639971247
190,Camocim,-2.9022,-40.8411,78.24,79,93,10.42,BR,1639971364
191,Thompson,55.7435,-97.8558,-9.24,84,90,5.75,CA,1639971364
192,Kaitangata,-46.2817,169.8464,69.93,59,100,12.21,NZ,1639971365
193,Carman,49.4992,-98.0016,10.74,66,12,18.41,CA,1639971365
194,Half Moon Bay,37.4636,-122.4286,49.87,87,75,1.01,US,1639971365
195,Bambous Virieux,-20.3428,57.7575,81.21,78,20,3.44,MU,1639971365
196,Hong Kong,22.2855,114.1577,62.58,83,100,1.01,HK,1639971247
197,Pangoa,-12.1167,-73.0,68.22,99,95,2.37,PE,1639971366
198,Coahuayana Viejo,18.7333,-103.6833,73.72,78,56,2.24,MX,1639971366
199,General Pico,-35.6566,-63.7568,69.4,80,3,7.14,AR,1639971227
200,Skibbereen,51.55,-9.2667,46.2,81,100,18.92,IE,1639971366
201,Santa Lucía,27.9117,-15.5407,56.52,82,20,9.22,ES,1639971367
202,Winneba,5.3511,-0.6231,79.27,74,94,3.69,GH,1639971367
203,Cherskiy,68.75,161.3,-24.84,97,100,22.32,RU,1639971367
204,Kumylzhenskaya,49.8809,42.5898,34.99,97,100,14.88,RU,1639971368
205,Jérémie,18.65,-74.1167,76.12,76,4,2.77,HT,1639971241
206,Kamaishi,39.2667,141.8833,36.55,51,45,13.24,JP,1639971368
207,Bauchi,10.5,10.0,55.17,34,1,4.23,NG,1639971369
208,Waddān,29.1614,16.139,43.63,63,0,4.05,LY,1639971163
209,Fort Nelson,58.8053,-122.7002,7.14,95,100,1.86,CA,1639971369
210,Avera,33.194,-82.5271,51.71,82,100,13.44,US,1639971369
211,San Luis,-33.295,-66.3356,79.93,45,89,5.68,AR,1639971370
212,Abadan,38.0507,58.2056,44.33,65,0,6.91,TM,1639971370
213,Wilmington,34.2257,-77.9447,44.51,79,90,12.66,US,1639971370
214,Luanda,-8.8368,13.2343,75.2,88,75,6.91,AO,1639971370
215,Flinders,-34.5833,150.8552,88.81,69,7,9.04,AU,1639971144
216,Saldanha,-33.0117,17.9442,60.85,83,95,5.08,ZA,1639971239
217,Castro,-24.7911,-50.0119,53.71,95,36,5.21,BR,1639971236
218,Kangaatsiaq,68.3065,-53.4641,25.47,74,100,16.64,GL,1639971371
219,Constantine,36.365,6.6147,35.01,86,0,3.44,DZ,1639971206
220,The Valley,18.217,-63.0578,78.66,73,95,21.5,AI,1639971191
221,Yurga,55.7231,84.8861,10.69,95,100,8.81,RU,1639971201
222,Poum,-20.2333,164.0167,80.91,71,3,3.29,NC,1639971372
223,Coos Bay,43.3665,-124.2179,53.58,98,90,6.91,US,1639971373
224,Mackay,-21.15,149.2,90.68,62,26,11.5,AU,1639971240
225,City of San Pedro,14.35,121.0167,87.03,73,40,5.75,PH,1639971373
226,Argalastí,39.2333,23.2167,42.42,60,13,10.25,GR,1639971373
227,Killarney,52.05,-9.5167,47.1,84,85,9.84,IE,1639971373
228,Hualmay,-11.0964,-77.6139,66.87,86,36,7.25,PE,1639971374
229,Manzanillo,20.3433,-77.1167,72.41,83,1,3.13,CU,1639971374
230,Nipawin,53.3668,-104.0009,-5.76,71,20,16.11,CA,1639971375
231,Port Blair,11.6667,92.75,82.06,70,55,9.8,IN,1639971204
232,Kenora,49.8167,-94.4337,22.39,67,40,13.8,CA,1639971435
233,Walvis Bay,-22.9575,14.5053,61.09,88,68,2.3,NA,1639971436
234,Salalah,17.0151,54.0924,69.89,73,0,5.75,OM,1639971436
235,Kawanishi,34.8167,135.4167,53.47,56,20,3.44,JP,1639971436
236,Constitución,-35.3333,-72.4167,57.83,79,48,10.58,CL,1639971250
237,Kaeo,-35.1,173.7833,71.51,59,79,8.95,NZ,1639971437
238,Fukuechō,32.6881,128.8419,55.76,54,75,5.75,JP,1639971437
239,Margate,51.3813,1.3862,44.69,93,100,1.99,GB,1639971437
240,Kingston,17.997,-76.7936,77.95,82,20,1.01,JM,1639971438
241,Iława,53.596,19.5685,38.86,97,100,16.37,PL,1639971438
242,Kulmbach,50.1,11.45,38.52,92,89,6.17,DE,1639971438
243,Seoul,37.5683,126.9778,51.37,54,0,9.22,KR,1639971195
244,Shingū,33.7333,135.9833,52.79,46,3,7.07,JP,1639971438
245,Concarneau,47.875,-3.9225,40.05,82,0,14.72,FR,1639971203
246,Fairbanks,64.8378,-147.7164,21.6,88,90,5.75,US,1639971221
247,Hamilton,39.1834,-84.5333,33.94,84,75,0.0,US,1639971439
248,Kattivākkam,13.2167,80.3167,77.09,83,23,11.79,IN,1639971276
249,Breţcu,46.05,26.3,32.38,97,97,3.2,RO,1639971440
250,Kholm-Zhirkovskiy,55.5189,33.4731,17.49,91,100,11.43,RU,1639971440
251,Macheng,31.1783,115.0319,57.65,24,12,5.97,CN,1639971440
252,Āsosa,10.0667,34.5333,61.48,47,72,5.46,ET,1639971440
253,Andenes,69.3143,16.1194,33.78,80,75,12.66,NO,1639971441
254,Atar,20.5169,-13.0499,74.26,24,100,15.61,MR,1639971441
255,Rāvar,31.2656,56.8055,57.42,39,100,4.63,IR,1639971237
256,Ossora,59.2353,163.0719,-3.46,86,80,6.2,RU,1639971442
257,Nha Trang,12.25,109.1833,80.6,67,100,1.9,VN,1639971357
258,Sørland,67.667,12.6934,39.61,53,98,15.37,NO,1639971442
259,Huarmey,-10.0681,-78.1522,67.39,85,78,6.82,PE,1639971442
260,Sobolevo,54.4299,31.8996,19.17,90,95,12.26,RU,1639971443
261,Salinópolis,-0.6136,-47.3561,79.68,84,100,10.69,BR,1639971443
262,Mount Gambier,-37.8333,140.7667,69.71,52,75,21.85,AU,1639971443
263,Huaicheng,23.9051,112.1931,50.61,89,100,1.16,CN,1639971443
264,Vicuña,-30.0319,-70.7081,53.33,63,97,0.63,CL,1639971444
265,Cleveland,41.4995,-81.6954,33.1,78,90,1.01,US,1639971211
266,Sadovoye,47.7764,44.5089,37.72,71,100,28.95,RU,1639971444
267,Bintulu,3.1667,113.0333,77.41,83,20,7.0,MY,1639971180
268,Nemuro,43.3236,145.575,28.83,50,7,10.56,JP,1639971445
269,Necochea,-38.5473,-58.7368,56.03,87,0,5.26,AR,1639971236
270,Souillac,-20.5167,57.5167,81.36,78,20,3.44,MU,1639971445
271,Khandyga,62.6667,135.6,-32.87,93,100,2.53,RU,1639971445
272,Saint-Pierre,-21.3393,55.4781,83.57,84,75,2.3,RE,1639971186
273,Timaru,-44.4,171.25,74.5,45,98,11.88,NZ,1639971233
274,Mumford,5.2618,-0.759,78.1,73,92,4.38,GH,1639971227
275,Hirara,24.8,125.2833,68.27,56,40,8.05,JP,1639971176
276,Leningradskiy,69.3833,178.4167,-5.58,87,100,9.84,RU,1639971447
277,Nouakchott,18.0858,-15.9785,69.73,46,100,15.82,MR,1639971195
278,Kisangani,0.5167,25.2,70.12,98,98,1.01,CD,1639971507
279,San Vicente,-26.6167,-54.1333,72.3,66,75,1.41,AR,1639971508
280,La Reforma,25.0833,-108.05,64.69,52,0,9.66,MX,1639971508
281,Simbahan,6.3032,120.5836,83.03,78,100,14.65,PH,1639971508
282,Luena,-11.7833,19.9167,62.1,99,100,4.61,AO,1639971508
283,Yangambi,0.8102,24.4336,69.84,98,99,1.52,CD,1639971270
284,Fairmont,39.4851,-80.1426,33.3,74,9,1.52,US,1639971509
285,Talnakh,69.4865,88.3972,-33.07,95,76,1.97,RU,1639971309
286,St. George's,12.0564,-61.7485,78.73,70,89,19.71,GD,1639971509
287,Shiraz,29.6036,52.5388,38.64,100,75,0.0,IR,1639971510
288,Ciudad Bolivar,8.1222,-63.5497,75.47,88,92,9.19,VE,1639971243
289,Miraflores,19.2167,-98.8083,60.03,84,58,3.85,MX,1639971510
290,Palmer,42.1584,-72.3287,26.08,66,1,1.01,US,1639971510
291,Grand Gaube,-20.0064,57.6608,81.37,72,76,3.0,MU,1639971511
292,Padre Bernardo,-15.35,-48.5,68.65,95,36,0.65,BR,1639971512
293,Carutapera,-1.195,-46.02,78.78,81,100,6.4,BR,1639971512
294,Popondetta,-8.7537,148.2534,87.66,63,42,5.46,PG,1639971512
295,Santa Catalina,9.3337,122.8637,85.87,68,96,4.16,PH,1639971308
296,La Palma,33.8464,-118.0467,57.9,83,1,0.0,US,1639971513
297,Cabo San Lucas,22.8909,-109.9124,70.95,73,20,4.61,MX,1639971513
298,Sitka,57.0531,-135.33,26.49,74,1,5.75,US,1639971513
299,Ahipara,-35.1667,173.1667,69.98,63,67,7.38,NZ,1639971513
300,Lagoa,39.05,-27.9833,57.94,70,100,36.22,PT,1639971514
301,Port Hardy,50.6996,-127.4199,39.2,80,20,11.5,CA,1639971514
302,Kungurtug,50.5994,97.5228,17.11,79,100,1.1,RU,1639971514
303,Aklavik,68.2191,-135.0107,-1.37,100,99,6.98,CA,1639971514
304,Havøysund,70.9963,24.6622,20.28,58,100,11.77,NO,1639971515
305,Pevek,69.7008,170.3133,-13.36,95,100,19.57,RU,1639971515
306,Puerto Ayacucho,5.6639,-67.6236,77.2,79,82,6.31,VE,1639971253
307,Quatre Cocos,-20.2078,57.7625,81.09,68,47,5.35,MU,1639971516
308,Sisimiut,66.9395,-53.6735,36.18,57,100,21.85,GL,1639971516
309,Fort Smith,35.3859,-94.3986,35.35,82,1,3.44,US,1639971516
310,Mariental,-24.6333,17.9667,66.67,25,14,1.52,NA,1639971516
311,Vozhega,60.4725,40.2213,2.55,93,100,10.56,RU,1639971517
312,Santa Maria a Monte,43.6999,10.689,53.98,69,100,0.94,IT,1639971219
313,Iralaya,15.0,-83.2333,77.13,88,14,9.1,HN,1639971517
314,Coxim,-18.5067,-54.76,74.93,94,100,4.03,BR,1639971237
315,Coquimbo,-29.9533,-71.3436,60.53,88,90,6.91,CL,1639971518
316,Atambua,-9.1061,124.8925,82.38,70,100,3.42,ID,1639971279
317,Dryden,49.7833,-92.7503,21.49,86,90,16.11,CA,1639971519
318,Lavrentiya,65.5833,-171.0,33.67,96,100,21.23,RU,1639971519
319,Sungai Penuh,-2.0833,101.3833,72.21,74,100,4.59,ID,1639971519
320,Miguel Calmon,-11.4289,-40.595,68.14,92,81,1.79,BR,1639971519
321,Monrovia,6.3005,-10.7969,79.2,81,7,4.81,LR,1639971304
322,Gympie,-26.1898,152.665,88.3,34,98,4.85,AU,1639971520
323,Saku,36.2167,138.4833,46.49,56,13,4.7,JP,1639971520
324,Santa Cruz del Sur,20.7147,-77.9956,73.9,85,0,8.52,CU,1639971269
325,Oildale,35.4197,-119.0195,57.56,86,1,0.0,US,1639971313
326,Pakxan,18.3778,103.6601,76.86,37,30,1.83,LA,1639971582
327,Glendive,47.1053,-104.7125,14.63,81,90,18.41,US,1639971582
328,Heihe,50.2441,127.4902,2.89,95,100,4.88,CN,1639971582
329,Mount Isa,-20.7333,139.5,96.57,26,1,8.05,AU,1639971582
330,Bayir,37.2687,28.2167,36.12,97,89,4.74,TR,1639971583
331,Petaling Jaya,3.1073,101.6067,88.14,70,20,2.3,MY,1639971583
332,Sept-Îles,50.2001,-66.3821,11.05,72,20,5.99,CA,1639971583
333,Buchanan,5.8808,-10.0467,78.62,85,12,5.3,LR,1639971584
334,La Ronge,55.1001,-105.2842,-12.75,70,75,9.22,CA,1639971584
335,Dębica,50.0515,21.4114,35.37,88,92,16.2,PL,1639971584
336,Tiksi,71.6872,128.8694,-16.78,100,100,2.44,RU,1639971585
337,Lebu,-37.6167,-73.65,56.62,94,27,15.35,CL,1639971585
338,Gīdolē,5.65,37.3667,55.94,83,89,3.29,ET,1639971585
339,Northam,51.0333,-4.2167,42.3,87,77,16.78,GB,1639971585
340,Loa Janan,-0.583,117.095,86.76,62,100,4.76,ID,1639971586
341,Makkah al Mukarramah,21.4267,39.8261,68.56,72,67,2.26,SA,1639971586
342,Zelenoborskiy,66.845,32.3622,6.84,94,95,7.11,RU,1639971586
343,Namatanai,-3.6667,152.4333,81.54,78,90,3.42,PG,1639971586
344,Bowen,-20.0167,148.2333,89.82,63,30,16.62,AU,1639971363
345,Sur,22.5667,59.5289,71.04,59,19,1.48,OM,1639971587
346,Tuy Hoa,13.0833,109.3,78.3,72,100,1.72,VN,1639971576
347,Te Anau,-45.4167,167.7167,56.43,89,100,11.65,NZ,1639971587
348,Bjørnevatn,69.6672,29.9847,25.14,93,90,14.97,NO,1639971588
349,Pouébo,-20.4,164.5667,81.46,75,64,3.38,NC,1639971588
350,Oruzgan,32.8333,66.0,44.8,51,50,3.33,AF,1639971588
351,Ban Nahin,18.2418,104.2122,71.28,43,82,1.79,LA,1639971588
352,Corrente,-3.7367,-43.3394,74.03,92,100,1.19,BR,1639971589
353,Winslow,35.0242,-110.6974,24.98,54,1,8.05,US,1639971589
354,Kargasok,59.0556,80.8572,-10.21,87,100,10.29,RU,1639971589
355,Codrington,-38.2667,141.9667,71.78,44,20,24.45,AU,1639971589
356,Kavieng,-2.5744,150.7967,82.17,76,83,1.1,PG,1639971590
357,Luwuk,-0.9516,122.7875,86.23,73,99,1.16,ID,1639971591
358,Dutse,11.7594,9.3392,56.91,28,48,7.23,NG,1639971591
359,Ugoofaaru,5.6667,73.0,82.63,74,57,14.29,MV,1639971591
360,Airai,-8.9266,125.4092,73.08,71,100,2.21,TL,1639971591
361,Narsaq,60.9167,-46.05,46.62,61,100,18.41,GL,1639971592
362,Carnarvon,-24.8667,113.6333,80.67,61,0,18.41,AU,1639971592
363,Havre-St-Pierre,50.2334,-63.5986,16.39,73,90,4.61,CA,1639971593
364,Guarapari,-20.6667,-40.4975,67.89,86,76,3.58,BR,1639971593
365,Baisha,26.5222,110.9311,51.84,61,98,1.41,CN,1639971593
366,Forsytheganj,52.6333,29.7333,30.13,87,99,11.54,BY,1639971593
367,Sokolo,14.7328,-6.1219,70.88,14,54,12.1,ML,1639971594
368,Letlhakane,-21.4167,25.5833,61.75,84,83,11.39,BW,1639971594
369,Āwash,8.9833,40.1667,69.94,67,89,2.04,ET,1639971594
370,Port Moresby,-9.4431,147.1797,89.02,66,40,8.99,PG,1639971606
371,Cayenne,4.9333,-52.3333,81.09,85,0,1.99,GF,1639971656
372,Chernyshevskiy,63.0128,112.4714,-42.18,99,80,2.86,RU,1639971656
373,Billings Metropolitan Area,45.7833,-108.5007,20.93,83,90,16.11,US,1639971656
374,Methóni,36.8197,21.7049,43.21,67,21,12.3,GR,1639971657
375,Road Town,18.4167,-64.6167,78.89,73,66,22.37,VG,1639971657
376,Viedma,-40.8135,-62.9967,63.0,83,26,16.13,AR,1639971657
377,Banfora,10.6333,-4.7667,71.6,19,0,7.0,BF,1639971658
378,Kentau,43.5206,68.5094,37.8,80,31,2.35,KZ,1639971658
379,Rawson,-43.3002,-65.1023,57.47,69,4,16.08,AR,1639971658
380,Bor,56.3567,44.0669,24.73,96,100,8.93,RU,1639971659
381,Nísia Floresta,-6.0911,-35.2086,81.41,87,88,4.7,BR,1639971659
382,Pitanga,-24.7572,-51.7614,63.91,70,56,6.13,BR,1639971659
383,Ixtapa,20.7,-105.2,73.22,88,40,3.44,MX,1639971660
384,Candijay,9.8182,124.4977,84.16,73,70,9.73,PH,1639971660
385,Xining,36.6167,101.7667,29.1,27,0,0.98,CN,1639971660
386,Tilichiki,60.4667,166.1,-19.43,97,36,6.98,RU,1639971661
387,La Unión,-5.4,-80.75,70.95,70,100,12.57,PE,1639971661
388,Honiara,-9.4333,159.95,84.27,75,98,4.05,SB,1639971606
389,Pirovskoye,57.6267,92.2658,-23.26,93,50,10.51,RU,1639971661
390,Gazojak,41.1875,61.4036,44.85,82,56,8.86,TM,1639971662
391,Juàzeirinho,-6.8167,-38.05,78.01,70,42,7.25,BR,1639971662
392,Pemangkat,1.1667,108.9667,80.8,79,100,4.18,ID,1639971662
393,Hofn,64.2539,-15.2082,40.14,69,71,5.17,IS,1639971662
394,Broken Hill,-31.95,141.4333,76.71,22,2,10.36,AU,1639971663
395,Mogadishu,2.0371,45.3438,79.7,82,77,15.26,SO,1639971663
396,Luba,3.4568,8.5547,75.09,76,11,0.67,GQ,1639971663
397,Rosetta,31.4044,30.4164,44.42,85,80,27.96,EG,1639971663
398,Anadyr,64.75,177.4833,-1.7,71,0,15.66,RU,1639971663
399,Kozulka,50.0351,23.797,32.32,92,100,14.07,UA,1639971664
400,Matara,5.9485,80.5353,82.29,72,27,4.5,LK,1639971664
401,Lubango,-14.9172,13.4925,59.5,82,33,1.68,AO,1639971664
402,Takhtamygda,54.1,123.5667,-4.25,88,100,9.62,RU,1639971665
403,Yumen,40.2833,97.2,35.76,16,0,13.56,CN,1639971665
404,Vostok,46.4856,135.8833,11.57,83,99,3.58,RU,1639971666
405,San Isidro,-12.1167,-77.05,67.01,89,75,1.99,PE,1639971666
406,Penzance,50.1186,-5.5371,49.77,79,100,24.92,GB,1639971666
407,Oranjemund,-28.55,16.4333,59.81,87,2,4.07,NA,1639971604
408,Williamsport,41.2412,-77.0011,27.05,61,1,4.61,US,1639971667
409,Ternate,0.8,127.4,81.63,78,95,3.31,ID,1639971667
410,Kununurra,-15.7667,128.7333,96.78,49,40,13.8,AU,1639971667
411,Abnūb,27.2696,31.1511,48.42,80,49,6.02,EG,1639971668
412,Shimanovsk,52.0,127.7,0.81,91,100,8.25,RU,1639971668
413,Bagdarin,54.4333,113.6,-14.22,64,23,6.13,RU,1639971668
414,Pokhara,28.2333,83.9833,60.06,27,0,4.14,NP,1639971537
415,Maracaçumé,-2.0428,-45.9592,74.26,90,100,2.39,BR,1639971669
416,Batemans Bay,-35.7167,150.1833,87.19,59,4,9.84,AU,1639971729
417,Makakilo City,21.3469,-158.0858,79.12,62,1,9.22,US,1639971730
418,Adrar,20.5022,-10.0711,71.38,25,100,14.92,MR,1639971731
419,Yangi Marg`ilon,40.4272,71.7189,38.62,65,75,9.22,UZ,1639971731
420,Neiafu,-18.65,-173.9833,84.88,70,40,12.66,TO,1639971731
421,Øksfjord,70.2396,22.3479,20.32,90,99,0.07,NO,1639971731
422,Si Satchanalai,17.5169,99.7598,71.38,57,7,3.13,TH,1639971606
423,Haapsalu,58.9431,23.5414,26.02,68,89,15.93,EE,1639971732
424,Huilong,31.8111,121.655,57.97,41,8,9.6,CN,1639971732
425,Bichura,50.5881,107.6022,8.51,74,44,8.28,RU,1639971732
426,General Roca,-39.0333,-67.5833,75.6,22,0,7.49,AR,1639971733
427,Saint Paul Harbor,57.79,-152.4072,32.47,82,16,4.5,US,1639971733
428,Sinjār,36.3209,41.8754,48.6,61,94,9.28,IQ,1639971733
429,Faya,18.3851,42.4509,54.12,92,34,3.69,SA,1639971734
430,Rocha,-34.4833,-54.3333,61.5,97,2,6.24,UY,1639971734
431,Pochutla,15.7432,-96.4661,78.82,81,100,3.18,MX,1639971734
432,Ratnagiri,16.9833,73.3,76.62,47,3,8.95,IN,1639971641
433,Wuda,39.4994,106.7117,39.43,15,0,11.48,CN,1639971736
434,Madang,-5.2246,145.7966,83.12,83,100,5.7,PG,1639971736
435,Amahai,-3.3333,128.9167,85.5,71,100,1.99,ID,1639971736
436,Middle Island,40.8843,-72.9373,30.4,71,40,4.0,US,1639971737
437,Bubaque,11.2833,-15.8333,80.73,53,4,16.13,GW,1639971737
438,Sabha,27.0377,14.4283,42.8,48,0,5.48,LY,1639971737
439,Uíge,-7.6087,15.0613,66.33,99,100,2.21,AO,1639971737
440,Hokitika,-42.7167,170.9667,64.2,81,38,16.8,NZ,1639971738
441,Amazar,53.858,120.875,-4.04,85,100,8.75,RU,1639971738
442,Polunochnoye,60.8697,60.4153,-6.99,96,100,8.84,RU,1639971739
443,Caravelas,-17.7125,-39.2481,73.09,92,96,3.8,BR,1639971739
444,Guane,22.2025,-84.0875,72.3,86,52,2.59,CU,1639971739
445,Vila Velha,-20.3297,-40.2925,67.95,94,90,3.44,BR,1639971740
446,Arlit,18.7369,7.3853,56.5,27,1,4.61,NE,1639971740
447,Kīhei,20.785,-156.4656,74.46,93,75,16.11,US,1639971740
448,Bagotville,-28.9833,153.4167,93.22,58,89,9.31,AU,1639971740
449,Rūdbār,30.15,62.6,56.26,29,9,3.09,AF,1639971741
450,São João da Barra,-21.6403,-41.0511,72.61,82,94,9.51,BR,1639971741
451,Plast,54.3691,60.8136,13.24,90,17,8.19,RU,1639971741
452,Umluj,25.0213,37.2685,65.52,53,98,8.41,SA,1639971742
453,Tongchuanshi,35.0806,109.0897,49.89,16,23,6.73,CN,1639971742
454,Camacha,33.0833,-16.3333,65.53,77,40,24.16,PT,1639971742
455,Portland,45.5234,-122.6762,42.62,94,90,1.99,US,1639971743
456,Padang,-0.9492,100.3543,75.25,77,99,2.62,ID,1639971743
457,Tiarei,-17.5333,-149.3333,84.22,75,21,14.72,PF,1639971743
458,Sawtell,-30.3833,153.1,91.72,65,99,12.66,AU,1639971743
459,Borogontsy,62.6683,131.1683,-33.0,99,98,1.52,RU,1639971743
460,Saint Anthony,45.0205,-93.218,31.15,71,90,5.01,US,1639971804
461,Birao,10.2849,22.7882,66.56,28,2,7.81,CF,1639971804
462,Kupang,-10.1667,123.5833,88.38,79,20,9.22,ID,1639971804
463,Hastings,50.8552,0.5729,44.35,97,100,14.63,GB,1639971608
464,Port Augusta,-32.5,137.7667,85.71,31,3,15.43,AU,1639971803
465,Strezhevoy,60.7333,77.5889,-27.42,84,100,10.4,RU,1639971805
466,Humaitá,-7.5061,-63.0208,74.5,99,100,1.41,BR,1639971805
467,Marawi,7.9986,124.2928,74.64,63,56,5.88,PH,1639971806
468,Maseru,-29.3167,27.4833,55.51,86,43,1.36,LS,1639971806
469,Patrocínio,-18.9439,-46.9925,65.95,95,1,8.79,BR,1639971806
470,Lakes Entrance,-37.8811,147.981,83.57,39,0,6.89,AU,1639971806
471,Sonoita,31.85,-112.8333,54.54,33,0,0.67,MX,1639971807
472,Katherine,-14.4667,132.2667,94.82,46,100,10.8,AU,1639971807
473,Palu,-0.8917,119.8707,86.31,76,98,3.96,ID,1639971807
474,Kavaratti,10.5669,72.642,81.1,71,3,6.64,IN,1639971807
475,Gambēla,8.25,34.5833,77.27,64,91,2.77,ET,1639971808
476,Newburgh,41.5034,-74.0104,29.52,69,1,1.01,US,1639971808
477,Tarancón,40.0085,-3.0073,38.48,87,99,4.07,ES,1639971808
478,Kiama,-34.6833,150.8667,90.0,69,11,11.99,AU,1639971809
479,Jacareacanga,-6.2222,-57.7528,74.07,99,100,1.07,BR,1639971809
480,Salta,-24.7859,-65.4117,75.79,61,75,1.99,AR,1639971554
481,Smoky Lake,54.1169,-112.4686,11.16,78,62,14.97,CA,1639971809
482,Hvolsvollur,63.7533,-20.2243,40.8,87,100,3.02,IS,1639971810
483,Buala,-8.145,159.5921,82.6,81,96,8.57,SB,1639971810
484,Dmitriyevka,54.75,55.3333,24.35,94,94,17.27,RU,1639971810
485,Alice Springs,-23.7,133.8833,92.75,20,0,13.8,AU,1639971810
486,Satellite Beach,28.1761,-80.5901,75.06,89,1,6.91,US,1639971811
487,Beringovskiy,63.05,179.3167,2.39,91,100,7.02,RU,1639971811
488,Bandarbeyla,9.4942,50.8122,78.12,76,34,17.0,SO,1639971811
489,Chaohu,31.6,117.8667,60.91,32,13,7.52,CN,1639971811
490,Honningsvåg,70.9821,25.9704,27.93,58,100,16.51,NO,1639971812
491,Geraldton,-28.7667,114.6,81.01,44,6,17.27,AU,1639971812
492,Yuzhno-Sukhokumsk,44.6581,45.6436,36.88,90,85,9.06,RU,1639971812
493,Grindavik,63.8424,-22.4338,43.27,100,90,6.91,IS,1639971812
494,Yagodnoye,62.55,149.6667,-43.76,100,80,2.68,RU,1639971812
495,Kato Souli,38.1667,24.0,43.5,74,8,4.79,GR,1639971813
496,Piskivka,50.6938,29.6193,32.41,94,97,11.14,UA,1639971813
497,Porto Walter,-8.2686,-72.7439,75.18,89,80,2.64,BR,1639971813
498,Yulara,-25.2406,130.9889,94.84,16,0,12.66,AU,1639971562
499,Irituia,-1.7711,-47.4381,74.61,95,100,2.35,BR,1639971814
500,Huai Thalaeng,14.997,102.6475,74.26,45,90,9.01,TH,1639971712
501,Ostrovnoy,68.0531,39.5131,19.33,80,100,21.88,RU,1639971814
502,Vilcún,-38.65,-72.2333,50.74,87,0,1.83,CL,1639971814
503,Volda,62.1476,6.0741,39.09,89,98,2.24,NO,1639971815
504,Nicolás R Casillas,20.5333,-103.4667,59.32,88,73,0.81,MX,1639971815
505,Trelleborg,55.3751,13.1569,34.18,70,0,16.91,SE,1639971815
506,Shizuishan,39.2333,106.7694,36.46,21,0,2.57,CN,1639971815
507,Santa Vitória do Palmar,-33.5189,-53.3681,65.7,89,0,8.75,BR,1639971816
508,Fortuna,40.5982,-124.1573,53.98,84,75,3.0,US,1639971816
509,Antalaha,-14.9003,50.2788,78.49,75,60,1.54,MG,1639971816
510,Santa Cruz de La Palma,28.6835,-17.7642,69.94,49,0,6.91,ES,1639971877
511,Dali,25.7,100.1833,56.3,48,17,3.76,CN,1639971877
512,Awjilah,29.1081,21.2869,50.41,64,34,6.8,LY,1639971878
513,Mahenge,-8.6833,36.7167,66.52,93,42,2.17,TZ,1639971878
514,Mana,5.6592,-53.7767,77.13,90,90,5.82,GF,1639971878
515,Shirvan,39.9509,48.8994,40.96,90,0,7.25,AZ,1639971878
516,Luangwa,-15.6167,30.4167,71.24,96,100,3.78,ZM,1639971879
517,Pisco,-13.7,-76.2167,66.25,88,0,8.05,PE,1639971880
518,Paamiut,61.994,-49.6678,40.77,59,100,11.61,GL,1639971880
519,Pathein,16.7833,94.7333,81.34,60,7,5.17,MM,1639971880
520,Benito Juarez,19.385,-99.165,60.01,60,91,5.99,MX,1639971880
521,Gimli,50.6336,-96.9907,8.62,66,69,12.66,CA,1639971881
522,Araouane,18.9048,-3.5265,67.14,18,89,8.79,ML,1639971881
523,Tshikapa,-6.4167,20.8,70.2,98,100,1.63,CD,1639971881
524,Gao,16.6362,1.637,59.45,17,4,11.86,ML,1639971881
525,Grand-Santi,4.25,-54.3833,71.96,99,60,2.21,GF,1639971882
526,Nawanshahr,31.1167,76.1333,50.99,21,11,4.97,IN,1639971865
527,Kloulklubed,7.0419,134.2556,84.7,77,87,19.69,PW,1639971882
528,Verkhoyansk,67.5447,133.385,-48.57,100,66,1.63,RU,1639971882
529,Sühbaatar,50.2314,106.2078,9.57,77,82,1.23,MN,1639971883
530,Grafton,42.207,-71.6856,25.07,74,1,9.22,US,1639971883
531,Calabar,4.9517,8.322,75.18,61,1,1.86,NG,1639971883
532,Talas,38.6908,35.5538,36.27,93,75,0.0,TR,1639971884
533,Nantucket,41.2835,-70.0995,37.51,68,90,24.16,US,1639971884
534,Merauke,-8.4667,140.3333,86.61,60,100,6.64,ID,1639971657
535,Mariehamn,60.0973,19.9348,30.06,51,75,14.97,AX,1639971885
536,Beaverlodge,55.2166,-119.4361,-6.45,94,100,1.79,CA,1639971885
537,Shelburne,44.0787,-80.2041,15.69,89,20,5.21,CA,1639971885
538,Aykhal,66.0,111.5,-19.03,99,100,7.58,RU,1639971885
539,Poarta Albă,44.2167,28.4,38.62,93,40,9.22,RO,1639971885
540,Morón,-34.6534,-58.6198,76.98,77,0,3.78,AR,1639971623
541,Koumac,-20.5667,164.2833,82.47,69,58,5.73,NC,1639971886
542,Muhos,64.808,25.9931,4.78,91,7,4.74,FI,1639971886
543,Tulun,54.5611,100.5792,-10.93,94,64,2.98,RU,1639971886
544,Bukama,-9.2,25.85,67.46,97,100,0.58,CD,1639971887
